[
  {
    "id": 1,
    "name": "畔居",
    "category": "和食",
    "phone_number": "03-3271-2000",
    "address": "東京都中央区日本橋1-2-10",
    "latitude": 35.683269,
    "longitude": 139.773733,
    "link": "https://tabelog.com/tokyo/A1302/A130203/13034278/",
    "comment": "日本橋駅15秒！掘炬燵個室22名・椅子個室28名迄。接待・歓送迎・結納を静かな個室で。",
    "owner_name": "北村元嚝",
    "owner_club": "無",
    "owner_graduated_at": "昭和39年",
    "owner_group": "三九会"
  },
  {
    "id": 1,
    "name": "畔居",
    "category": "和食",
    "phone_number": "03-3271-2000",
    "address": "東京都中央区日本橋1-2-10",
    "latitude": 35.683269,
    "longitude": 139.773733,
    "link": "https://tabelog.com/tokyo/A1302/A130203/13034278/",
    "comment": "日本橋駅15秒！掘炬燵個室22名・椅子個室28名迄。接待・歓送迎・結納を静かな個室で。",
    "owner_name": "北村元嚝",
    "owner_club": "無",
    "owner_graduated_at": "昭和39年",
    "owner_group": "三九会"
  },
  {
    "id": 1,
    "name": "畔居",
    "category": "和食",
    "phone_number": "03-3271-2000",
    "address": "東京都中央区日本橋1-2-10",
    "latitude": 35.683269,
    "longitude": 139.773733,
    "link": "https://tabelog.com/tokyo/A1302/A130203/13034278/",
    "comment": "日本橋駅15秒！掘炬燵個室22名・椅子個室28名迄。接待・歓送迎・結納を静かな個室で。",
    "owner_name": "北村元嚝",
    "owner_club": "無",
    "owner_graduated_at": "昭和39年",
    "owner_group": "三九会"
  },
  {
    "id": 1,
    "name": "畔居",
    "category": "和食",
    "phone_number": "03-3271-2000",
    "address": "東京都中央区日本橋1-2-10",
    "latitude": 35.683269,
    "longitude": 139.773733,
    "link": "https://tabelog.com/tokyo/A1302/A130203/13034278/",
    "comment": "日本橋駅15秒！掘炬燵個室22名・椅子個室28名迄。接待・歓送迎・結納を静かな個室で。",
    "owner_name": "北村元嚝",
    "owner_club": "無",
    "owner_graduated_at": "昭和39年",
    "owner_group": "三九会"
  }
]